{
 "slug": "chuncheon",
 "name": "춘천시",
 "region": "강원특별자치도",
 "headline": "춘천시 기억궁전",
 "intro": "내부 방은 렌더링하지 않고, 실제 3D 지도 배경 위에 명소 마커를 얹습니다.",
 "center": {
  "lat": 37.86245,
  "lon": 127.67923,
  "zoom": 12
 },
 "landmarks": [
  {
   "name": "남이섬",
   "desc": "메타세쿼이아 길과 강변 풍경으로 사랑받는 섬.",
   "h": 12,
   "lon": 127.572923,
   "lat": 37.813487
  },
  {
   "name": "소양강 스카이워크",
   "desc": "바닥이 투명한 유리로 된 강 위 전망 다리.",
   "h": 12,
   "lon": 127.719138,
   "lat": 37.893437
  },
  {
   "name": "김유정문학촌",
   "desc": "소설가 김유정의 생가와 작품을 테마로 한 마을.",
   "h": 12,
   "lon": 127.71672,
   "lat": 37.81943
  },
  {
   "name": "청평사",
   "desc": "오봉산 자락에 자리한 고려 고찰.",
   "h": 12,
   "lon": 127.715002,
   "lat": 37.874486
  },
  {
   "name": "강촌·강촌레일파크",
   "desc": "옛 경춘선 철길을 따라 레일바이크를 타는 명소.",
   "h": 12,
   "lon": 127.636016,
   "lat": 37.807976
  },
  {
   "name": "명동 닭갈비골목",
   "desc": "춘천을 대표하는 닭갈비 음식 거리.",
   "h": 12,
   "lon": 127.7273,
   "lat": 37.87913
  },
  {
   "name": "소양강댐",
   "desc": "한때 동양 최대 사력댐으로 불린 대형 댐.",
   "h": 12,
   "lon": 127.749197,
   "lat": 37.948186
  },
  {
   "name": "의암호·삼악산 케이블카",
   "desc": "호수 위를 가로지르는 국내 최장급 케이블카.",
   "h": 12,
   "lon": 127.70654,
   "lat": 37.883207
  },
  {
   "name": "공지천",
   "desc": "에티오피아 참전 기념관이 있는 호반 산책 명소.",
   "h": 12,
   "lon": 127.706405,
   "lat": 37.873336
  },
  {
   "name": "제이드가든 수목원",
   "desc": "유럽풍 정원으로 꾸민 산자락 수목원.",
   "h": 12,
   "lon": 127.543055,
   "lat": 37.831863
  }
 ]
}