{
 "slug": "gimje",
 "name": "김제시",
 "region": "전북특별자치도",
 "headline": "김제시 기억궁전",
 "intro": "내부 방은 렌더링하지 않고, 실제 3D 지도 배경 위에 명소 마커를 얹습니다.",
 "center": {
  "lat": 35.79405,
  "lon": 126.91826,
  "zoom": 12
 },
 "landmarks": [
  {
   "name": "벽골제",
   "desc": "국내에서 가장 오래된 저수지 유적.",
   "h": 12,
   "lon": 126.88932,
   "lat": 35.805554
  },
  {
   "name": "금산사",
   "desc": "모악산 자락의 거대한 미륵 신앙 대찰.",
   "h": 12,
   "lon": 127.050053,
   "lat": 35.721359
  },
  {
   "name": "모악산",
   "desc": "호남평야를 굽어보는 명산.",
   "h": 12,
   "lon": 127.01979,
   "lat": 35.715675
  },
  {
   "name": "김제 지평선(만경평야)",
   "desc": "국내에서 유일하게 지평선이 보이는 들녘.",
   "h": 12,
   "lon": 126.881164,
   "lat": 35.801914
  },
  {
   "name": "아리랑문학마을",
   "desc": "소설 '아리랑'을 테마로 조성한 마을.",
   "h": 12,
   "lon": 126.844804,
   "lat": 35.774437
  },
  {
   "name": "망해사",
   "desc": "서해 낙조로 유명한 바닷가 사찰.",
   "h": 12,
   "lon": 126.718773,
   "lat": 35.856265
  },
  {
   "name": "귀신사",
   "desc": "백제계 양식이 남은 고찰.",
   "h": 12,
   "lon": 127.046833,
   "lat": 35.745701
  },
  {
   "name": "새창이다리",
   "desc": "일제강점기에 놓인 만경강 옛 다리.",
   "h": 12,
   "lon": 126.837009,
   "lat": 35.912142
  },
  {
   "name": "청운사 하소백련지",
   "desc": "백련이 군락을 이루는 연꽃 명소.",
   "h": 12,
   "lon": 126.976631,
   "lat": 35.813391
  }
 ]
}