{
  "slug": "gunpo",
  "name": "군포시",
  "region": "경기도",
  "headline": "군포시 기억궁전",
  "intro": "내부 방은 렌더링하지 않고, 실제 3D 지도 배경 위에 명소 마커를 얹습니다.",
  "center": {
    "lat": 37.35386,
    "lon": 126.91729,
    "zoom": 12
  },
  "landmarks": [
    {
      "name": "수리산 철쭉동산",
      "desc": "봄이면 철쭉이 산자락을 물들이는 명소.",
      "h": 12,
      "lon": 126.905489,
      "lat": 37.358719
    },
    {
      "name": "반월호수",
      "desc": "둘레길과 카페가 어우러진 잔잔한 호수.",
      "h": 12,
      "lon": 126.885673,
      "lat": 37.321657
    },
    {
      "name": "초막골생태공원",
      "desc": "수리산 자락의 습지·반딧불이 생태 공원.",
      "h": 12,
      "lon": 126.9191,
      "lat": 37.3541
    },
    {
      "name": "수리산도립공원",
      "desc": "군포·안양에 걸친 도립공원 산.",
      "h": 12,
      "lon": 126.906148,
      "lat": 37.360158
    },
    {
      "name": "덕고개당숲",
      "desc": "마을을 지켜온 오래된 당산 숲길.",
      "h": 12,
      "lon": 126.921823,
      "lat": 37.359574,
      "approx": true,
      "needsReview": true
    },
    {
      "name": "갈치저수지",
      "desc": "낚시와 카페로 알려진 저수지.",
      "h": 12,
      "lon": 126.939824,
      "lat": 37.375306
    },
    {
      "name": "산본중심상가",
      "desc": "산본신도시의 번화한 상업·먹거리 거리.",
      "h": 12,
      "lon": 126.930535,
      "lat": 37.373249,
      "approx": true,
      "needsReview": true
    },
    {
      "name": "군포시민체육광장",
      "desc": "각종 체육 행사가 열리는 시민 광장.",
      "h": 12,
      "lon": 126.9368,
      "lat": 37.35404
    },
    {
      "name": "대야미 마을",
      "desc": "옛 정취가 남은 농촌 마을과 들길.",
      "h": 12,
      "lon": 126.911777,
      "lat": 37.326493
    },
    {
      "name": "군포중앙도서관",
      "desc": "책 축제로 알려진 책의 도시 거점 도서관.",
      "h": 12,
      "lon": 126.915713,
      "lat": 37.355313
    }
  ]
}