{
  "slug": "gunsan",
  "name": "군산시",
  "region": "전북특별자치도",
  "headline": "군산시 기억궁전",
  "intro": "내부 방은 렌더링하지 않고, 실제 3D 지도 배경 위에 명소 마커를 얹습니다.",
  "center": {
    "lat": 35.96413,
    "lon": 126.68225,
    "zoom": 12
  },
  "landmarks": [
    {
      "name": "경암동 철길마을",
      "desc": "옛 철길을 따라 집이 늘어선 추억의 마을.",
      "h": 12,
      "lon": 126.736219,
      "lat": 35.9813
    },
    {
      "name": "군산근대역사박물관",
      "desc": "개항과 근대사를 보여주는 박물관.",
      "h": 12,
      "lon": 126.711967,
      "lat": 35.990806
    },
    {
      "name": "초원사진관",
      "desc": "영화 '8월의 크리스마스' 촬영지.",
      "h": 12,
      "lon": 126.708375,
      "lat": 35.987742
    },
    {
      "name": "동국사",
      "desc": "국내 유일하게 남은 일본식 사찰.",
      "h": 12,
      "lon": 126.707343,
      "lat": 35.982619
    },
    {
      "name": "신흥동 일본식 가옥",
      "desc": "근대 적산가옥의 모습을 간직한 집.",
      "h": 12,
      "lon": 126.706071,
      "lat": 35.986174
    },
    {
      "name": "내항 뜬다리부두",
      "desc": "조수 차에 대응해 만든 근대 항만 유산.",
      "h": 12,
      "lon": 126.712932,
      "lat": 35.989265
    },
    {
      "name": "은파호수공원",
      "desc": "도심 속 호수와 물빛다리의 유원지.",
      "h": 12,
      "lon": 126.690064,
      "lat": 35.951057
    },
    {
      "name": "선유도(고군산군도)",
      "desc": "다리로 이어진 아름다운 섬 무리.",
      "h": 12,
      "lon": 126.412593,
      "lat": 35.813135
    },
    {
      "name": "이성당",
      "desc": "국내에서 가장 오래된 빵집으로 알려져 있다.",
      "h": 12,
      "lon": 126.711181,
      "lat": 35.987119
    },
    {
      "name": "근대건축물 거리(옛 세관·은행)",
      "desc": "개항기 건물이 늘어선 거리.",
      "h": 12,
      "lon": 126.725736,
      "lat": 35.972105,
      "approx": true,
      "needsReview": true
    }
  ]
}