{
  "slug": "gwangmyeong",
  "name": "광명시",
  "region": "경기도",
  "headline": "광명시 기억궁전",
  "intro": "내부 방은 렌더링하지 않고, 실제 3D 지도 배경 위에 명소 마커를 얹습니다.",
  "center": {
    "lat": 37.44548,
    "lon": 126.86473,
    "zoom": 12
  },
  "landmarks": [
    {
      "name": "광명동굴",
      "desc": "폐광을 빛과 예술로 단장한 인기 동굴 테마파크.",
      "h": 12,
      "lon": 126.865875,
      "lat": 37.425647
    },
    {
      "name": "광명업사이클아트센터",
      "desc": "버려진 자원을 예술로 되살린 전시관.",
      "h": 12,
      "lon": 126.864515,
      "lat": 37.424839
    },
    {
      "name": "기형도문학관",
      "desc": "요절 시인 기형도를 기리는 문학관.",
      "h": 12,
      "lon": 126.881578,
      "lat": 37.426407
    },
    {
      "name": "충현박물관",
      "desc": "오리 이원익 종택을 보존한 사가 박물관.",
      "h": 12,
      "lon": 126.877745,
      "lat": 37.433942
    },
    {
      "name": "광명전통시장",
      "desc": "먹자골목으로 유명한 대형 전통시장.",
      "h": 12,
      "lon": 126.855497,
      "lat": 37.479768
    },
    {
      "name": "도덕산",
      "desc": "도심에 솟은 가벼운 산책 산.",
      "h": 12,
      "lon": 126.857219,
      "lat": 37.465467
    },
    {
      "name": "구름산",
      "desc": "광명의 진산으로 숲길이 좋은 산.",
      "h": 12,
      "lon": 126.871713,
      "lat": 37.457176
    },
    {
      "name": "가학산",
      "desc": "광명동굴이 자리한 산.",
      "h": 12,
      "lon": 126.856377,
      "lat": 37.416906
    },
    {
      "name": "광명스피돔",
      "desc": "경륜 경기가 열리는 돔형 경기장.",
      "h": 12,
      "lon": 126.847027,
      "lat": 37.46635
    },
    {
      "name": "안터생태공원",
      "desc": "도심 저수지를 살린 생태 학습 공원.",
      "h": 12,
      "lon": 126.869753,
      "lat": 37.458303
    }
  ]
}