{
 "slug": "hwaseong",
 "name": "화성시",
 "region": "경기도",
 "headline": "화성시 기억궁전",
 "intro": "내부 방은 렌더링하지 않고, 실제 3D 지도 배경 위에 명소 마커를 얹습니다.",
 "center": {
  "lat": 37.20169,
  "lon": 126.95611,
  "zoom": 12
 },
 "landmarks": [
  {
   "name": "궁평항·궁평낙조",
   "desc": "낙조가 아름다운 서해의 항구.",
   "h": 12,
   "lon": 126.955954,
   "lat": 37.190742
  },
  {
   "name": "융건릉",
   "desc": "정조와 사도세자가 잠든 유네스코 세계유산 왕릉.",
   "h": 12,
   "lon": 126.987108,
   "lat": 37.205892
  },
  {
   "name": "용주사",
   "desc": "정조가 아버지를 기리며 세운 효찰(孝刹).",
   "h": 12,
   "lon": 127.002846,
   "lat": 37.213576
  },
  {
   "name": "전곡항",
   "desc": "요트와 마리나 시설을 갖춘 레저 항구.",
   "h": 12,
   "lon": 126.958557,
   "lat": 37.209788
  },
  {
   "name": "화성 공룡알화석지",
   "desc": "중생대 공룡알이 무더기로 발견된 천연기념물.",
   "h": 12,
   "lon": 126.90455,
   "lat": 37.180372
  },
  {
   "name": "송산그린시티 에코팜랜드",
   "desc": "넓은 들에 조성된 승마·체험 단지.",
   "h": 12,
   "lon": 126.755574,
   "lat": 37.253885
  },
  {
   "name": "동탄호수공원",
   "desc": "동탄신도시에 조성된 호수와 산책로.",
   "h": 12,
   "lon": 127.100973,
   "lat": 37.168893
  },
  {
   "name": "라비돌리조트",
   "desc": "온천과 골프를 함께 즐기는 복합 리조트.",
   "h": 12,
   "lon": 126.983358,
   "lat": 37.190338
  }
 ]
}