{
  "slug": "jecheon",
  "name": "제천시",
  "region": "충청북도",
  "headline": "제천시 기억궁전",
  "intro": "내부 방은 렌더링하지 않고, 실제 3D 지도 배경 위에 명소 마커를 얹습니다.",
  "center": {
    "lat": 37.06249,
    "lon": 128.16287,
    "zoom": 12
  },
  "landmarks": [
    {
      "name": "청풍호·청풍문화재단지",
      "desc": "수몰을 피해 옮겨 복원한 문화재와 호반.",
      "h": 12,
      "lon": 128.130361,
      "lat": 36.999897
    },
    {
      "name": "의림지",
      "desc": "삼한시대에 축조된 것으로 전하는 저수지.",
      "h": 12,
      "lon": 128.206761,
      "lat": 37.176692
    },
    {
      "name": "배론성지",
      "desc": "천주교 박해의 역사가 깃든 순교 성지.",
      "h": 12,
      "lon": 128.083864,
      "lat": 37.159524
    },
    {
      "name": "청풍호반 케이블카·비봉산",
      "desc": "호수를 굽어보는 케이블카 전망 명소.",
      "h": 12,
      "lon": 128.166637,
      "lat": 37.00133
    },
    {
      "name": "옥순봉·구담봉",
      "desc": "남한강 절경을 이루는 명승 봉우리.",
      "h": 12,
      "lon": 128.231449,
      "lat": 36.944677
    },
    {
      "name": "박달재",
      "desc": "'울고 넘는 박달재'로 알려진 고개.",
      "h": 12,
      "lon": 128.226402,
      "lat": 37.159512
    },
    {
      "name": "정방사",
      "desc": "절벽에 매달린 듯 자리한 청풍호변 사찰.",
      "h": 12,
      "lon": 128.198145,
      "lat": 36.987017
    },
    {
      "name": "제천 한방엑스포공원",
      "desc": "약초와 한방을 테마로 한 공원.",
      "h": 12,
      "lon": 128.160193,
      "lat": 37.143576
    },
    {
      "name": "탁사정",
      "desc": "계곡과 어우러진 정자 명승지.",
      "h": 12,
      "lon": 128.085277,
      "lat": 37.159898
    },
    {
      "name": "월악산(국립공원)",
      "desc": "영봉과 송계계곡을 품은 명산.",
      "h": 12,
      "lon": 128.139602,
      "lat": 36.892805
    }
  ]
}