{
  "slug": "seosan",
  "name": "서산시",
  "region": "충청남도",
  "headline": "서산시 기억궁전",
  "intro": "내부 방은 렌더링하지 않고, 실제 3D 지도 배경 위에 명소 마커를 얹습니다.",
  "center": {
    "lat": 36.77668,
    "lon": 126.47235,
    "zoom": 12
  },
  "landmarks": [
    {
      "name": "서산 마애여래삼존상",
      "desc": "'백제의 미소'로 불리는 국보 마애불.",
      "h": 12,
      "lon": 126.464008,
      "lat": 36.783577
    },
    {
      "name": "해미읍성",
      "desc": "조선 읍성이자 천주교 순교 성지.",
      "h": 12,
      "lon": 126.549191,
      "lat": 36.71321
    },
    {
      "name": "간월암",
      "desc": "물이 들면 섬이 되는 바다 위 암자.",
      "h": 12,
      "lon": 126.4112,
      "lat": 36.60383
    },
    {
      "name": "개심사",
      "desc": "왕벚꽃과 청벚꽃으로 유명한 고찰.",
      "h": 12,
      "lon": 126.584472,
      "lat": 36.746714
    },
    {
      "name": "황금산 코끼리바위",
      "desc": "코끼리를 닮은 바위가 있는 해안 명소.",
      "h": 12,
      "lon": 126.334255,
      "lat": 36.9867
    },
    {
      "name": "가야산",
      "desc": "서산과 예산을 가르는 명산.",
      "h": 12,
      "lon": 126.582375,
      "lat": 36.706593
    },
    {
      "name": "삼길포항",
      "desc": "우럭으로 유명한 작은 항구.",
      "h": 12,
      "lon": 126.452093,
      "lat": 37.0033
    },
    {
      "name": "서산버드랜드(천수만)",
      "desc": "철새 도래지를 관찰하는 생태 시설.",
      "h": 12,
      "lon": 126.379957,
      "lat": 36.62868
    },
    {
      "name": "용현자연휴양림",
      "desc": "마애불 인근의 숲속 휴양지.",
      "h": 12,
      "lon": 126.599445,
      "lat": 36.774302
    },
    {
      "name": "팔봉산",
      "desc": "여덟 봉우리가 이어지는 능선 산행지.",
      "h": 12,
      "lon": 126.366511,
      "lat": 36.819865
    }
  ]
}